[{"id":100654,"name":"Alabama A & M University","address":"4900 Meridian Street","city":"Normal","state":"Alabama","zip":35762,"website":"www.aamu.edu/","classification":"Master's Colleges and Universities (larger programs)","location":{"latitude":34.783368,"longitude":-86.568502}},
{"id":100663,"name":"University of Alabama at Birmingham","address":"Administration Bldg Suite 1070","city":"Birmingham","state":"Alabama","zip":"35294-0110","website":"www.uab.edu","classification":"Research Universities (very high research activity)","location":{"latitude":33.50223,"longitude":-86.80917}},
{"id":100690,"name":"Amridge University","address":"1200 Taylor Rd","city":"Montgomery","state":"Alabama","zip":"36117-3553","website":"www.amridgeuniversity.edu","classification":"Baccalaureate Colleges--Arts & Sciences","location":{"latitude":32.362609,"longitude":-86.17401}},
{"id":100706,"name":"University of Alabama in Huntsville","address":"301 Sparkman Dr","city":"Huntsville","state":"Alabama","zip":"35899","website":"www.uah.edu","classification":"Research Universities (very high research activity)","location":{"latitude":34.722818,"longitude":-86.63842}},
{"id":100724,"name":"Alabama State University","address":"915 S Jackson Street","city":"Montgomery","state":"Alabama","zip":"36104-0271","website":"www.alasu.edu","classification":"Master's Colleges and Universities (larger programs)","location":{"latitude":32.364317,"longitude":-86.295677}},
{"id":100751,"name":"The University of Alabama","address":"739 University Blvd","city":"Tuscaloosa","state":"Alabama","zip":"35487-0166","website":"www.ua.edu/","classification":"Research Universities (high research activity)","location":{"latitude":33.2144,"longitude":-87.545766}},
{"id":100830,"name":"Auburn University at Montgomery","address":"7440 East Drive","city":"Montgomery","state":"Alabama","zip":"36117-3596","website":"www.aum.edu","classification":"Master's Colleges and Universities (larger programs)","location":{"latitude":32.369939,"longitude":-86.177351}},
{"id":100858,"name":"Auburn University","address":"Auburn, Alabama","city":"Auburn University","state":"Alabama","zip":"36849","website":"www.auburn.edu","classification":"Research Universities (high research activity)","location":{"latitude":32.600201,"longitude":-85.492409}},
{"id":101189,"name":"Faulkner University","address":"5345 Atlanta Hwy","city":"Montgomery","state":"Alabama","zip":"36109-3390","website":"www.faulkner.edu","classification":"Baccalaureate Colleges--Diverse Fields","location":{"latitude":32.384181,"longitude":-86.21641}},
{"id":101480,"name":"Jacksonville State University","address":"700 Pelham Road North","city":"Jacksonville","state":"Alabama","zip":"36265","website":"www.jsu.edu/","classification":"Master's Colleges and Universities (larger programs)","location":{"latitude":33.822128,"longitude":-85.766644}},
{"id":102049,"name":"Samford University","address":"800 Lakeshore Drive","city":"Birmingham","state":"Alabama","zip":"35229-2240","website":"www.samford.edu","classification":"Master's Colleges and Universities (medium programs)","location":{"latitude":33.464578,"longitude":-86.790932}},
{"id":102094,"name":"University of South Alabama","address":"307 N University Blvd","city":"Mobile","state":"Alabama","zip":"36688-0002","website":"www.southalabama.edu","classification":"Research Universities (high research activity)","location":{"latitude":30.695081,"longitude":-88.18189}},
{"id":102377,"name":"Tuskegee University","address":"Kresge Center, 3rd Floor","city":"Tuskegee","state":"Alabama","zip":"36088-1920","website":"www.tuskegee.edu","classification":"Baccalaureate Colleges--Diverse Fields","location":{"latitude":32.431021,"longitude":-85.710315}},
{"id":102553,"name":"University of Alaska Anchorage","address":"3211 Providence Drive","city":"Anchorage","state":"Alaska","zip":"99508","website":"www.uaa.alaska.edu","classification":"Master's Colleges and Universities (larger programs)","location":{"latitude":61.189554,"longitude":-149.826135}},
{"id":102614,"name":"University of Alaska Fairbanks","address":"505 South Chandalar Drive","city":"Fairbanks","state":"Alaska","zip":"99775-7500","website":"www.uaf.edu","classification":"Research Universities (high research activity)","location":{"latitude":64.857053,"longitude":-147.824751}},
{"id":104151,"name":"Arizona State University-Tempe","address":"University Drive and Mill Avenue","city":"Tempe","state":"Arizona","zip":"85287","website":"www.asu.edu/","classification":"Research Universities (very high research activity)","location":{"latitude":33.421922,"longitude":-111.940011}},
{"id":104179,"name":"University of Arizona","address":"1401 E University","city":"Tucson","state":"Arizona","zip":"85721-0066","website":"www.arizona.edu","classification":"Research Universities (very high research activity)","location":{"latitude":32.232071,"longitude":-110.950769}},
{"id":104717,"name":"Grand Canyon University","address":"3300 W Camelback Rd","city":"Phoenix","state":"Arizona","zip":"85017","website":"www.gcu.edu","classification":"Master's Colleges and Universities (larger programs)","location":{"latitude":33.512172,"longitude":-112.129917}},
{"id":105330,"name":"Northern Arizona University","address":"1900 S. Knoles Dr, Babbitt Administrative Center","city":"Flagstaff","state":"Arizona","zip":"86011-4132","website":"nau.edu/","classification":"Research Universities (high research activity)","location":{"latitude":35.180095,"longitude":-111.657653}},
{"id":105589,"name":"Prescott College","address":"220 Grove Ave","city":"Prescott","state":"Arizona","zip":"86301","website":"www.prescott.edu","classification":"Master's Colleges and Universities (smaller programs)","location":{"latitude":34.5445,"longitude":-112.476509}},
{"id":106245,"name":"University of Arkansas at Little Rock","address":"2801 S University Ave","city":"Little Rock","state":"Arkansas","zip":"72204","website":"ualr.edu/www/","classification":"Doctoral/Research Universities","location":{"latitude":34.726644,"longitude":-92.341835}},
{"id":106263,"name":"University of Arkansas for Medical Sciences","address":"4301 W Markham","city":"Little Rock","state":"Arkansas","zip":"72205-7199","website":"www.uams.edu","classification":"Medical schools and medical centers","location":{"latitude":34.749718,"longitude":-92.320945}},
{"id":106397,"name":"University of Arkansas","address":"Administration Bldg 425","city":"Fayetteville","state":"Arkansas","zip":"72701","website":"www.uark.edu","classification":"Research Universities (very high research activity)","location":{"latitude":36.06153,"longitude":-94.178214}},
{"id":106412,"name":"University of Arkansas at Pine Bluff","address":"1200 N University Mail Slot 4789","city":"Pine Bluff","state":"Arkansas","zip":"71601","website":"www.uapb.edu","classification":"Baccalaureate Colleges--Diverse Fields","location":{"latitude":34.242192,"longitude":-92.021263}},
{"id":106458,"name":"Arkansas State University-Main Campus","address":"2105 E. Aggie Road","city":"Jonesboro","state":"Arkansas","zip":"72401","website":"www2.astate.edu","classification":"Master's Colleges and Universities (larger programs)","location":{"latitude":35.842779,"longitude":-90.680478}},
{"id":106704,"name":"University of Central Arkansas","address":"201 Donaghey Ave","city":"Conway","state":"Arkansas","zip":"72035-0001","website":"www.uca.edu","classification":"Master's Colleges and Universities (larger programs)","location":{"latitude":35.078196,"longitude":-92.45931}},
{"id":107044,"name":"Harding University","address":"915 E. Market Ave.","city":"Searcy","state":"Arkansas","zip":"72143","website":"www.harding.edu","classification":"Master's Colleges and Universities (larger programs)","location":{"latitude":35.249605,"longitude":-91.729008}},
{"id":109785,"name":"Azusa Pacific University","address":"901 E Alosta","city":"Azusa","state":"California","zip":"91702-7000","website":"www.apu.edu","classification":"Doctoral/Research Universities","location":{"latitude":34.130865,"longitude":-117.88795}},
{"id":110097,"name":"Biola University","address":"13800 Biola Ave","city":"La Mirada","state":"California","zip":"90639-0001","website":"www.biola.edu","classification":"Doctoral/Research Universities","location":{"latitude":33.904823,"longitude":-118.017342}},
{"id":110316,"name":"California Institute of Integral Studies","address":"1453 Mission Street","city":"San Francisco","state":"California","zip":"94103","website":"www.ciis.edu","classification":"Doctoral/Research Universities","location":{"latitude":37.774768,"longitude":-122.416537}}]